[
  {
    "name": "伊勢丹新宿店",
    "slug": "isetan-shinjuku",
    "category": "department_store",
    "address": "東京都新宿区新宿3-14-1",
    "latitude": 35.6916,
    "longitude": 139.7046,
    "official_parking_name": "伊勢丹本館パーキング",
    "max_height_mm": 2000,
    "max_width_mm": 2200,
    "notes": "自走式。ハイルーフ車も比較的入庫しやすい。"
  },
  {
    "name": "銀座三越",
    "slug": "ginza-mitsukoshi",
    "category": "department_store",
    "address": "東京都中央区銀座4-6-16",
    "latitude": 35.6717,
    "longitude": 139.7658,
    "official_parking_name": "銀座四丁目公共駐車場",
    "max_height_mm": 2000,
    "max_width_mm": 1900,
    "notes": "幅広の車は近隣の西銀座駐車場（幅2.1m）が推奨。"
  },
  {
    "name": "日本橋三越本店",
    "slug": "nihombashi-mitsukoshi",
    "category": "department_store",
    "address": "東京都中央区日本橋室町1-4-1",
    "latitude": 35.6856,
    "longitude": 139.7731,
    "official_parking_name": "三越パーキングビル",
    "max_height_mm": 2100,
    "max_width_mm": 2000,
    "notes": "自走式。ビル内機械式は1.66m/1.95m制限あり。"
  },
  {
    "name": "日本橋高島屋S.C.",
    "slug": "nihombashi-takashimaya",
    "category": "department_store",
    "address": "東京都中央区日本橋2-4-1",
    "latitude": 35.6808,
    "longitude": 139.7731,
    "official_parking_name": "日本橋髙島屋S.C.新館駐車場",
    "max_height_mm": 2100,
    "max_width_mm": 2050,
    "notes": "新館・東館ともにハイルーフ対応。"
  },
  {
    "name": "新宿高島屋",
    "slug": "shinjuku-takashimaya",
    "category": "department_store",
    "address": "東京都渋谷区千駄ヶ谷5-24-2",
    "latitude": 35.6875,
    "longitude": 139.7023,
    "official_parking_name": "タイムズスクエア本館駐車場",
    "max_height_mm": 2350,
    "max_width_mm": 2100,
    "notes": "高さ制限が2.35mと高く、大型SUVも安心。"
  },
  {
    "name": "松屋銀座",
    "slug": "matsuya-ginza",
    "category": "department_store",
    "address": "東京都中央区銀座3-6-1",
    "latitude": 35.6718,
    "longitude": 139.7672,
    "official_parking_name": "松屋 第1駐車場",
    "max_height_mm": 2000,
    "max_width_mm": 1900,
    "notes": "第2駐車場は機械式で高さ1.55m/幅1.85mと厳しいので注意。"
  },
  {
    "name": "六本木ヒルズ",
    "slug": "roppongi-hills",
    "category": "complex",
    "address": "東京都港区六本木6-10-1",
    "latitude": 35.6605,
    "longitude": 139.7291,
    "official_parking_name": "六本木ヒルズ P2駐車場",
    "max_height_mm": 2100,
    "max_width_mm": 2050,
    "notes": "自走式P2が大型車向け。P1/P5〜P12は制限が異なる。"
  },
  {
    "name": "東京ミッドタウン",
    "slug": "tokyo-midtown",
    "category": "complex",
    "address": "東京都港区赤坂9-7-1",
    "latitude": 35.6657,
    "longitude": 139.7312,
    "official_parking_name": "東京ミッドタウン駐車場",
    "max_height_mm": 2100,
    "max_width_mm": 2050,
    "notes": "24時間営業。自走式で使いやすい。"
  },
  {
    "name": "帝国ホテル 東京",
    "slug": "imperial-hotel-tokyo",
    "category": "hotel",
    "address": "東京都千代田区内幸町1-1-1",
    "latitude": 35.6722,
    "longitude": 139.7583,
    "official_parking_name": "帝国ホテル駐車場",
    "max_height_mm": 2100,
    "max_width_mm": 2050,
    "notes": "自走式。大型の外車も比較的余裕を持って駐車可能。"
  },
  {
    "name": "東京大学医学部附属病院",
    "slug": "tokyo-univ-hospital",
    "category": "hospital",
    "address": "東京都文京区本郷7-3-1",
    "latitude": 35.7123,
    "longitude": 139.7642,
    "official_parking_name": "東大病院駐車場",
    "max_height_mm": 2100,
    "max_width_mm": 1900,
    "notes": "非常に混雑するため、公共交通機関の利用も推奨されている。"
  },
  {
    "name": "慶應義塾大学病院",
    "slug": "keio-univ-hospital",
    "category": "hospital",
    "address": "東京都新宿区信濃町35",
    "latitude": 35.6821,
    "longitude": 139.7175,
    "official_parking_name": "慶應病院駐車場",
    "max_height_mm": 2100,
    "max_width_mm": 2000,
    "notes": "自走式立体。周辺にコインパーキングが少ないため注意。"
  },
  {
    "name": "聖路加国際病院",
    "slug": "st-lukes-hospital",
    "category": "hospital",
    "address": "東京都中央区明石町9-1",
    "latitude": 35.6673,
    "longitude": 139.7753,
    "official_parking_name": "聖路加国際病院駐車場",
    "max_height_mm": 2100,
    "max_width_mm": 2000,
    "notes": "自走式立体駐車場。2.1mまでならハイルーフも可。"
  },
  {
    "name": "東京女子医科大学病院",
    "slug": "twmu-hospital",
    "category": "hospital",
    "address": "東京都新宿区河田町8-1",
    "latitude": 35.6983,
    "longitude": 139.7212,
    "official_parking_name": "東京女子医大駐車場",
    "max_height_mm": 2100,
    "max_width_mm": 1900,
    "notes": "周辺道路が非常に狭いため、大型車は注意が必要。"
  },
  {
    "name": "羽田空港 第1・第2ターミナル",
    "slug": "haneda-airport",
    "category": "airport",
    "address": "東京都大田区羽田空港",
    "latitude": 35.5488,
    "longitude": 139.7845,
    "official_parking_name": "羽田空港 P1〜P4駐車場",
    "max_height_mm": 2300,
    "max_width_mm": 2100,
    "notes": "予約が推奨される。高さ2.3mまで対応可能。"
  },
  {
    "name": "東京駅（丸の内・八重洲）",
    "slug": "tokyo-station",
    "category": "station",
    "address": "東京都千代田区丸の内1-9-1",
    "latitude": 35.6812,
    "longitude": 139.7671,
    "official_parking_name": "丸の内パークイン / 八重洲駐車場",
    "max_height_mm": 2100,
    "max_width_mm": 2000,
    "notes": "丸の内側は一部3.0mまで可。八重洲側は2.1m制限が多い。"
  }
]
