name,slug,address,latitude,longitude,parking_type,total_spaces,is_24h,open_time,close_time,fee_type,amount_yen,duration_minutes,fee_notes,restriction_name,max_length_mm,max_width_mm,max_height_mm,max_weight_kg,spaces_count,restriction_notes,source_url
タイムズ東京堂千代田ビルディング,times-buk0046281,東京都千代田区九段南1-3,35.690767,139.756108,self_propelled,28,TRUE,,,hourly,440,20,,一般,5000,1900,2100,2500,28,,https://times-info.net/P13-tokyo/C101/park-detail-BUK0046281/
タイムズ神田神保町第２０,times-buk0059066,東京都千代田区神田神保町3-7,35.691953,139.756589,self_propelled,3,TRUE,,,hourly,440,15,,一般,5000,1900,2100,2500,3,,https://times-info.net/P13-tokyo/C101/park-detail-BUK0059066/
タイムズ九段南第１０,times-buk0038178,東京都千代田区九段南1-4,35.691711,139.755872,self_propelled,9,TRUE,,,hourly,330,12,,一般,5000,1900,2100,2500,9,,https://times-info.net/P13-tokyo/C101/park-detail-BUK0038178/
タイムズ神田神保町第１７,times-buk0039986,東京都千代田区神田神保町3-11,35.692153,139.757561,self_propelled,2,TRUE,,,hourly,440,15,,一般,5000,1900,2100,2500,2,,https://times-info.net/P13-tokyo/C101/park-detail-BUK0039986/
タイムズ新富町駅前,times-buk0046784,東京都中央区新富2-2,35.668464,139.775647,self_propelled,1,TRUE,,,hourly,440,20,,一般,5000,1900,2100,2500,1,,https://times-info.net/P13-tokyo/C102/park-detail-BUK0046784/
タイムズ築地２丁目第４,times-buk0057894,東京都中央区築地2-8,35.666019,139.775528,self_propelled,4,TRUE,,,hourly,440,12,,一般,5000,1900,2100,2500,4,,https://times-info.net/P13-tokyo/C102/park-detail-BUK0057894/
タイムズ新富２丁目,times-buk0031795,東京都中央区新富2-2,35.668625,139.775647,self_propelled,8,TRUE,,,hourly,440,20,,一般,5000,1900,2100,2500,8,,https://times-info.net/P13-tokyo/C102/park-detail-BUK0031795/
タイムズ芝公園２丁目第４,times-buk0061446,東京都港区芝公園2-3,35.653692,139.755722,self_propelled,2,TRUE,,,hourly,440,12,,一般,5000,1900,2100,2500,2,,https://times-info.net/P13-tokyo/C103/park-detail-BUK0061446/
タイムズ芝大門１丁目,times-buk0069419,東京都港区芝大門1-13,35.653867,139.756633,self_propelled,20,TRUE,,,hourly,440,12,,一般,5000,1900,2100,2500,20,,https://times-info.net/P13-tokyo/C103/park-detail-BUK0069419/
タイムズ港芝公園二駐車場,times-buk0070392,東京都港区芝公園2-5,35.652539,139.754258,self_propelled,67,TRUE,,,hourly,300,10,,一般,5000,1900,2100,2500,67,,https://times-info.net/P13-tokyo/C103/park-detail-BUK0070392/
タイムズ新宿東宝ビル,times-buk0034907,東京都新宿区歌舞伎町1-19,35.692369,139.705622,self_propelled,158,TRUE,,,hourly,330,20,,一般,5000,1900,2100,2000,158,,https://times-info.net/P13-tokyo/C104/park-detail-BUK0034907/
タイムズ新宿歌舞伎町,times-buk0037491,東京都新宿区歌舞伎町1-20,35.692839,139.704503,mechanical,28,TRUE,,,hourly,250,30,,普通車,5000,1900,1550,1500,28,,https://times-info.net/P13-tokyo/C104/park-detail-BUK0037491/
タイムズロッテ新宿歌舞伎町第２,times-buk0072636,東京都新宿区歌舞伎町2-21,35.693494,139.707039,self_propelled,36,TRUE,,,hourly,330,15,,一般,5000,1900,2100,2500,36,,https://times-info.net/P13-tokyo/C104/park-detail-BUK0072636/
タイムズロッテ新宿歌舞伎町第１,times-buk0072635,東京都新宿区歌舞伎町2-20,35.693586,139.707847,self_propelled,82,TRUE,,,hourly,330,15,,一般,5000,1900,2100,2500,82,,https://times-info.net/P13-tokyo/C104/park-detail-BUK0072635/
タイムズハイジア,times-buk0045989,東京都新宿区歌舞伎町2-44,35.692839,139.704194,self_propelled,109,TRUE,,,hourly,250,15,,一般,5000,1900,2100,2500,109,,https://times-info.net/P13-tokyo/C104/park-detail-BUK0045989/
タイムズ小石川２丁目,times-buk0053493,東京都文京区小石川2-4,35.705511,139.753878,self_propelled,5,TRUE,,,hourly,330,15,,一般,5000,1900,2100,2500,5,,https://times-info.net/P13-tokyo/C105/park-detail-BUK0053493/
タイムズ本郷第１０,times-buk0014448,東京都文京区本郷4-9,35.705192,139.759136,self_propelled,6,TRUE,,,hourly,440,20,,一般,5000,1900,2100,2500,6,,https://times-info.net/P13-tokyo/C105/park-detail-BUK0014448/
タイムズ春日１丁目第２,times-buk0064860,東京都文京区春日1-12,35.706314,139.751086,self_propelled,4,TRUE,,,hourly,330,15,,一般,5000,1900,2100,2500,4,,https://times-info.net/P13-tokyo/C105/park-detail-BUK0064860/
タイムズ東上野４丁目第２,times-buk0075733,東京都台東区東上野4-3,35.709331,139.782389,self_propelled,2,TRUE,,,hourly,330,12,,一般,5000,1900,2100,2500,2,,https://times-info.net/P13-tokyo/C106/park-detail-BUK0075733/
タイムズ上野駅前,times-buk0055977,東京都台東区東上野4-3,35.709111,139.782297,self_propelled,28,TRUE,,,hourly,400,12,,一般,5000,1900,2100,2500,28,,https://times-info.net/P13-tokyo/C106/park-detail-BUK0055977/
タイムズ東上野第３９,times-buk0050766,東京都台東区東上野3-37,35.7085,139.782431,self_propelled,2,TRUE,,,hourly,330,15,,一般,5000,1900,2100,2500,2,,https://times-info.net/P13-tokyo/C106/park-detail-BUK0050766/
タイムズ吾妻橋第６,times-buk0063317,東京都墨田区吾妻橋2-16,35.706839,139.806378,self_propelled,7,TRUE,,,hourly,330,30,,一般,5000,1900,2100,2500,7,,https://times-info.net/P13-tokyo/C107/park-detail-BUK0063317/
タイムズ吾妻橋第５,times-buk0029483,東京都墨田区吾妻橋1-20,35.705942,139.804619,self_propelled,4,TRUE,,,hourly,330,30,,一般,5000,1900,2100,2500,4,,https://times-info.net/P13-tokyo/C107/park-detail-BUK0029483/
タイムズ本所吾妻橋第２,times-buk0016224,東京都墨田区吾妻橋1-9,35.704978,139.803167,self_propelled,5,TRUE,,,hourly,330,30,,一般,5000,1900,2100,2500,5,,https://times-info.net/P13-tokyo/C107/park-detail-BUK0016224/
タイムズ江東区役所第１駐車場,times-buk0046615,東京都江東区東陽4-11,35.669361,139.819667,self_propelled,39,TRUE,,,hourly,220,30,,一般,5000,1900,2100,2500,39,,https://times-info.net/P13-tokyo/C108/park-detail-BUK0046615/
タイムズ江東区役所第２駐車場,times-buk0046624,東京都江東区東陽4-11,35.669981,139.819625,self_propelled,20,TRUE,,,hourly,220,30,,一般,5000,1900,2100,2500,20,,https://times-info.net/P13-tokyo/C108/park-detail-BUK0046624/
タイムズ東陽第１３,times-buk0054305,東京都江東区東陽5-31,35.669278,139.818183,self_propelled,5,TRUE,,,hourly,220,20,,一般,5000,1900,2100,2500,5,,https://times-info.net/P13-tokyo/C108/park-detail-BUK0054305/
タイムズ品川区役所,times-buk0043040,東京都品川区広町2-1,35.605325,139.732961,self_propelled,91,TRUE,,,hourly,330,30,,一般,5000,1900,2100,2500,91,,https://times-info.net/P13-tokyo/C109/park-detail-BUK0043040/
タイムズ品川区立中小企業センター,times-buk0043041,東京都品川区西品川1-28,35.605811,139.730925,self_propelled,11,TRUE,,,hourly,330,30,,一般,5000,1900,2100,2500,11,,https://times-info.net/P13-tokyo/C109/park-detail-BUK0043041/
タイムズ二葉１丁目第２,times-buk0054447,東京都品川区二葉1-10,35.604364,139.731183,self_propelled,6,TRUE,,,hourly,220,15,,一般,5000,1900,2100,2500,6,,https://times-info.net/P13-tokyo/C109/park-detail-BUK0054447/
タイムズ目黒区総合庁舎中庭,times-buk0053649,東京都目黒区上目黒2-19,35.63735,139.701517,self_propelled,52,TRUE,,,hourly,400,12,,一般,5000,1900,2100,2500,52,,https://times-info.net/P13-tokyo/C110/park-detail-BUK0053649/
タイムズ中目黒３丁目,times-buk0034618,東京都目黒区中目黒3-21,35.635747,139.702133,self_propelled,5,TRUE,,,hourly,330,20,,一般,5000,1900,2100,2500,5,,https://times-info.net/P13-tokyo/C110/park-detail-BUK0034618/
タイムズ中目黒１丁目,times-buk0017498,東京都目黒区中目黒1-9,35.640314,139.705417,self_propelled,9,TRUE,,,hourly,330,15,,一般,5000,1900,2100,2500,9,,https://times-info.net/P13-tokyo/C110/park-detail-BUK0017498/
タイムズ中目黒駅西口,times-buk0038332,東京都目黒区上目黒3-12,35.641292,139.700578,self_propelled,4,TRUE,,,hourly,220,10,,一般,5000,1900,2100,2500,4,,https://times-info.net/P13-tokyo/C110/park-detail-BUK0038332/
タイムズ蒲田第１３,times-buk0001542,東京都大田区蒲田5-43,35.557422,139.720572,self_propelled,5,TRUE,,,hourly,220,10,,一般,5000,1900,2100,2500,5,,https://times-info.net/P13-tokyo/C111/park-detail-BUK0001542/
タイムズ東急プラザ蒲田,times-buk0047468,東京都大田区西蒲田7-69,35.558325,139.717653,self_propelled,33,TRUE,,,hourly,500,30,,一般,5000,1900,2100,2500,33,,https://times-info.net/P13-tokyo/C111/park-detail-BUK0047468/
タイムズマルエツかまた店,times-buk0028124,東京都大田区蒲田5-47,35.556536,139.719111,self_propelled,56,TRUE,,,hourly,330,30,,一般,5000,1900,2100,2500,56,,https://times-info.net/P13-tokyo/C111/park-detail-BUK0028124/
タイムズホテルマイステイズ蒲田,times-buk0041021,東京都大田区蒲田5-46,35.556931,139.719289,self_propelled,4,TRUE,,,hourly,220,12,,一般,5000,1900,2100,2500,4,,https://times-info.net/P13-tokyo/C111/park-detail-BUK0041021/
タイムズ西蒲田８丁目第４,times-buk0067647,東京都大田区西蒲田8-23,35.557325,139.7176,self_propelled,4,TRUE,,,hourly,330,12,,一般,5000,1900,2100,2500,4,,https://times-info.net/P13-tokyo/C111/park-detail-BUK0067647/
タイムズ松陰神社,times-buk0041829,東京都世田谷区若林4-35,35.643706,139.659236,self_propelled,20,TRUE,,,hourly,220,20,,一般,5000,1900,2100,2500,20,,https://times-info.net/P13-tokyo/C112/park-detail-BUK0041829/
タイムズ松陰神社前第６,times-buk0047097,東京都世田谷区若林4-35,35.643225,139.659447,self_propelled,8,TRUE,,,hourly,220,20,,一般,5000,1900,2100,2500,8,,https://times-info.net/P13-tokyo/C112/park-detail-BUK0047097/
タイムズ松陰神社前第４,times-buk0033080,東京都世田谷区若林4-35,35.644222,139.659564,self_propelled,17,TRUE,,,hourly,220,30,,一般,5000,1900,2100,2500,17,,https://times-info.net/P13-tokyo/C112/park-detail-BUK0033080/
タイムズ松陰神社前第５,times-buk0034633,東京都世田谷区若林4-35,35.643947,139.659772,self_propelled,8,TRUE,,,hourly,220,20,,一般,5000,1900,2100,2500,8,,https://times-info.net/P13-tokyo/C112/park-detail-BUK0034633/
タイムズ渋谷東武ホテル,times-buk0040527,東京都渋谷区宇田川町3-1,35.65985,139.701692,self_propelled,5,TRUE,,,hourly,440,10,,一般,5000,1900,2100,2500,5,,https://times-info.net/P13-tokyo/C113/park-detail-BUK0040527/
タイムズ渋谷宇田川町第４,times-buk0079759,東京都渋谷区宇田川町12,35.658308,139.701481,self_propelled,2,TRUE,,,hourly,440,15,,一般,5000,1900,2100,2500,2,,https://times-info.net/P13-tokyo/C113/park-detail-BUK0079759/
タイムズ渋谷宇田川町,times-buk0031156,東京都渋谷区宇田川町36-6,35.658328,139.700547,self_propelled,8,TRUE,,,hourly,440,10,,一般,5000,1900,2100,2500,8,,https://times-info.net/P13-tokyo/C113/park-detail-BUK0031156/
タイムズ中野区役所,times-buk0067952,東京都中野区中野4-11,35.706086,139.66645,self_propelled,53,TRUE,,,hourly,500,30,,一般,5000,1900,2100,2500,53,,https://times-info.net/P13-tokyo/C114/park-detail-BUK0067952/
タイムズ中野４丁目第５,times-buk0081584,東京都中野区中野4-7,35.705233,139.666822,self_propelled,1,TRUE,,,hourly,220,10,,一般,5000,1900,2100,2500,1,,https://times-info.net/P13-tokyo/C114/park-detail-BUK0081584/
タイムズアーバンネット中野ビル,times-buk0027119,東京都中野区中野4-11,35.706578,139.665781,self_propelled,8,TRUE,,,hourly,330,15,,一般,5000,1900,2100,2500,8,,https://times-info.net/P13-tokyo/C114/park-detail-BUK0027119/
タイムズ阿佐谷南第１７,times-buk0075623,東京都杉並区阿佐谷南3-29,35.698714,139.638536,self_propelled,7,TRUE,,,hourly,220,15,,一般,5000,1900,2100,2500,7,,https://times-info.net/P13-tokyo/C115/park-detail-BUK0075623/
タイムズ阿佐谷南第１５,times-buk0046549,東京都杉並区阿佐谷南1-38,35.6989,139.641264,self_propelled,2,TRUE,,,hourly,220,20,,一般,5000,1900,2100,2500,2,,https://times-info.net/P13-tokyo/C115/park-detail-BUK0046549/
タイムズ阿佐谷南第９,times-buk0014747,東京都杉並区阿佐谷南3-33,35.6994,139.638742,self_propelled,4,TRUE,,,hourly,220,20,,一般,5000,1900,2100,2500,4,,https://times-info.net/P13-tokyo/C115/park-detail-BUK0014747/
タイムズ南池袋第５,times-buk0021694,東京都豊島区南池袋2-36,35.722211,139.719856,self_propelled,5,TRUE,,,hourly,330,20,,一般,5000,1900,2100,2500,5,,https://times-info.net/P13-tokyo/C116/park-detail-BUK0021694/
タイムズ南池袋第８,times-buk0047650,東京都豊島区南池袋2-39,35.722022,139.719883,self_propelled,6,TRUE,,,hourly,330,20,,一般,5000,1900,2100,2500,6,,https://times-info.net/P13-tokyo/C116/park-detail-BUK0047650/
タイムズとしまエコミューゼタウン,times-buk0036279,東京都豊島区南池袋2-45,35.723314,139.719728,self_propelled,49,TRUE,,,hourly,400,30,,一般,5000,1900,2300,2500,49,,https://times-info.net/P13-tokyo/C116/park-detail-BUK0036279/
タイムズ南池袋第３,times-buk0001593,東京都豊島区南池袋2-37,35.721719,139.719014,self_propelled,4,TRUE,,,hourly,330,20,,一般,5000,1900,2100,2500,4,,https://times-info.net/P13-tokyo/C116/park-detail-BUK0001593/
タイムズ王子本町２丁目,times-buk0076012,東京都北区王子本町2-30,35.751192,139.733617,self_propelled,3,TRUE,,,hourly,220,30,,一般,5000,1900,2100,2500,3,,https://times-info.net/P13-tokyo/C117/park-detail-BUK0076012/
タイムズ滝野川第１５,times-buk0017252,東京都北区滝野川2-32,35.747389,139.734028,self_propelled,18,TRUE,,,hourly,220,25,,一般,5000,1900,2100,2500,18,,https://times-info.net/P13-tokyo/C117/park-detail-BUK0017252/
タイムズ王子第８,times-buk0001867,東京都北区王子1-13,35.752272,139.7399,self_propelled,2,TRUE,,,hourly,330,20,,一般,5000,1900,2100,2500,2,,https://times-info.net/P13-tokyo/C117/park-detail-BUK0001867/
タイムズ荒川３丁目,times-buk0043412,東京都荒川区荒川3-22,35.732003,139.785614,self_propelled,2,TRUE,,,hourly,220,20,,一般,5000,1900,2100,2500,2,,https://times-info.net/P13-tokyo/C118/park-detail-BUK0043412/
タイムズ荒川第２８,times-buk0061196,東京都荒川区荒川1-2,35.732372,139.788911,self_propelled,10,TRUE,,,hourly,220,30,,一般,5000,1900,2100,2500,10,,https://times-info.net/P13-tokyo/C118/park-detail-BUK0061196/
タイムズ荒川第２７,times-buk0054705,東京都荒川区荒川1-3,35.732372,139.789758,self_propelled,5,TRUE,,,hourly,220,30,,一般,5000,1900,2100,2500,5,,https://times-info.net/P13-tokyo/C118/park-detail-BUK0054705/
タイムズ大山東町,times-buk0004262,東京都板橋区大山東町34,35.747708,139.711044,self_propelled,5,TRUE,,,hourly,220,20,,一般,5000,1900,2100,2500,5,,https://times-info.net/P13-tokyo/C119/park-detail-BUK0004262/
タイムズ板橋氷川町,times-buk0033777,東京都板橋区氷川町44,35.7481,139.710247,self_propelled,4,TRUE,,,hourly,220,15,,一般,5000,1900,2100,2500,4,,https://times-info.net/P13-tokyo/C119/park-detail-BUK0033777/
タイムズ板橋２丁目第３,times-buk0049797,東京都板橋区板橋2-19,35.744125,139.712633,self_propelled,5,TRUE,,,hourly,220,30,,一般,5000,1900,2100,2500,5,,https://times-info.net/P13-tokyo/C119/park-detail-BUK0049797/
タイムズ豊玉北第２０,times-buk0051748,東京都練馬区豊玉北6-5,35.731897,139.656031,self_propelled,5,TRUE,,,hourly,220,15,,一般,5000,1900,2100,2500,5,,https://times-info.net/P13-tokyo/C120/park-detail-BUK0051748/
タイムズ豊玉北６丁目,times-buk0037591,東京都練馬区豊玉北6-9,35.730819,139.654675,self_propelled,6,TRUE,,,hourly,220,30,,一般,5000,1900,2100,2500,6,,https://times-info.net/P13-tokyo/C120/park-detail-BUK0037591/
タイムズ豊玉北５丁目,times-buk0035944,東京都練馬区豊玉北5-26,35.730494,139.657175,self_propelled,6,TRUE,,,hourly,220,20,,一般,5000,1900,2100,2500,6,,https://times-info.net/P13-tokyo/C120/park-detail-BUK0035944/
タイムズ足立中央本町第４,times-buk0041862,東京都足立区中央本町1-20,35.773917,139.807075,self_propelled,7,TRUE,,,hourly,220,30,,一般,5000,1900,2100,2500,7,,https://times-info.net/P13-tokyo/C121/park-detail-BUK0041862/
タイムズ足立中央本町第７,times-buk0065618,東京都足立区中央本町4-17,35.771231,139.811922,self_propelled,13,TRUE,,,hourly,220,40,,一般,5000,1900,2100,2500,13,,https://times-info.net/P13-tokyo/C121/park-detail-BUK0065618/
タイムズ足立中央本町第６,times-buk0051025,東京都足立区中央本町2-9,35.768214,139.809194,self_propelled,4,TRUE,,,hourly,220,30,,一般,5000,1900,2100,2500,4,,https://times-info.net/P13-tokyo/C121/park-detail-BUK0051025/
タイムズ立石第５,times-buk0017594,東京都葛飾区立石7-4,35.73725,139.852825,self_propelled,5,TRUE,,,hourly,220,20,,一般,5000,1900,2100,2500,5,,https://times-info.net/P13-tokyo/C122/park-detail-BUK0017594/
タイムズ白鳥第９,times-buk0040773,東京都葛飾区白鳥1-6,35.74335,139.846564,self_propelled,7,TRUE,,,hourly,220,40,,一般,5000,1900,2100,2500,7,,https://times-info.net/P13-tokyo/C122/park-detail-BUK0040773/
タイムズ白鳥第１０,times-buk0046811,東京都葛飾区白鳥2-8,35.744228,139.846464,self_propelled,12,TRUE,,,hourly,220,40,,一般,5000,1900,2100,2500,12,,https://times-info.net/P13-tokyo/C122/park-detail-BUK0046811/
タイムズ東京電力江戸川,times-buk0048138,東京都江戸川区中央1-5,35.704197,139.871125,self_propelled,9,TRUE,,,hourly,220,40,,一般,5000,1900,2100,2500,9,,https://times-info.net/P13-tokyo/C123/park-detail-BUK0048138/
タイムズ松島１丁目,times-buk0033240,東京都江戸川区松島1-29,35.702058,139.869144,self_propelled,13,TRUE,,,hourly,220,40,,一般,5000,1900,2100,2500,13,,https://times-info.net/P13-tokyo/C123/park-detail-BUK0033240/
タイムズ江戸川中央第６,times-buk0020162,東京都江戸川区中央2-3,35.702044,139.874714,self_propelled,4,TRUE,,,hourly,330,60,,一般,5000,1900,2100,2500,4,,https://times-info.net/P13-tokyo/C123/park-detail-BUK0020162/
